Nome da Unidade,Bairro,Endereço,CEP,Latitude,Longitude,Em área de inundação?,Classe de suscetibilidade,Distância até deslizamento mais próximo (m),Ponto de deslizamento mais próximo,Próxima a deslizamento (≤300m)?
HOFE SEG SAO VICENTE,BEIRA MAR,"FREI GASPAR, 2587",11340000,-23.957548,-46.402516,Sim,Média,1901,Ponto 5,Não
CENTRO DE REABILITACAO NEUROLOGICA MATHEUS ALVARES SV,BOA VISTA,"ONZE DE JUNHO, 291",11320160,-23.971685,-46.372754,Sim,Baixa,484.6,Edifício Solaris,Não
CENTRO DE REABILITACAO NEUROLOGICA MATHEUS ALVARES II SV,BOA VISTA,"RANGEL PESTANA, 209",11320120,-23.96946,-46.372218,Sim,Baixa,232.5,Edifício Solaris,Sim
IACS PRESIDENTE WILSON SAO VICENTE,BOA VISTA,"AVENIDA PRESIDENTE WILSON, 456",11320001,-23.967739,-46.348186,Não,,1530.1,Ponto 3,Não
EVOLUIR CLINICA NEURODESENVOLVIMENTO 2 SV,BOA VISTA,"RANGEL PESTANA, 209",11320120,-23.970715,-46.37308,Sim,Baixa,385.8,Edifício Solaris,Não
ESF SA CATARINA SAO VICENTE,CATIAPOA,"RUA TRAVESSA DO PARQUE, S/N",11365330,-23.957364,-46.393161,Sim,Alta,1444.4,Ponto 5,Não
UNIDADE BASICA DE SAUDE CATIAPOA SAO VICENTE,CATIAPOA,"AV PERSIO DE QUEIROZ FILHO, S/N",11370300,-23.956717,-46.387331,Sim,Média,1489.7,Ponto 5,Não
APAE SAO VICENTE,CATIAPOA,"RUA FELICIANO MARCONDES DA SILVA, 205",11390220,-23.96242,-46.382,Sim,Média,1141.3,Ponto 5,Não
EDUARDO PALMIERI,CATIAPOA,"AV MARTINS FONTES, 480",11390200,-23.960685,-46.406714,Sim,Média,2017.9,Ponto 5,Não
CONSULTORIO ODONTOLOGICO MARILENE J ALVES SAO VICENTE,CATIAPOA,"RUA SALVADOR MALAQUIAS LEAL, 88",11390360,-23.956442,-46.386082,Sim,Alta,1544.6,Ponto 5,Não
RADICOM SAO VICENTE,CENTRO,"PADRE ANCHIETA, 224",11310040,-23.968215,-46.384985,Sim,Baixa,510.4,Ponto 5,Não
CENTRO DE COMBATE AO CORONAVIRUS DE SAO VICENTE,CENTRO,"RUA JOAO RAMALHO, 1150",11310050,-23.963294,-46.387726,Sim,Alta,764.9,Ponto 5,Não
CLINICA MULT IMAGEM SAO VICENTE,CENTRO,"RUA FREI GASPAR, 790",11310061,-23.964822,-46.386613,Sim,Alta,647.5,Ponto 5,Não
LEANDRO DE LIMA GIACCHERI SAO VICENTE,CENTRO,"RUA JACOB EMERICK, 365",11310071,-23.967809,-46.385047,Sim,Baixa,523.4,Ponto 5,Não
ALCYR NOGUEIRA LIMA SAO VICENTE,CENTRO,"RUA FREI GASPAR, 931",11310061,-23.964591,-46.388623,Sim,Alta,604.5,Ponto 5,Não
RMIC IMAGENS DE DIAGNOSTICOS SAO VICENTE,CENTRO,"RUA FREI GASPAR, 637",11310060,-23.966127,-46.385701,Sim,Média,583.4,Ponto 5,Não
CONSULTORIO DRA RENATA GUELLI SAO VICENTE,CENTRO,"RUA XV DE NOVEMBRO, 576",11310400,-23.963755,-46.385414,Sim,Alta,811.3,Ponto 5,Não
CENTRAL MUNICIPAL DE REDE DE FRIO SAO VICENTE,CENTRO,"RUA PADRE ANCHIETA, 462",11310040,-23.966523,-46.383891,Sim,Média,697,Ponto 5,Não
FARMACIA PAGUE MENOS SAO VICENTE,CENTRO,"AV PRESIDENTE WILSON, 706",11320000,-23.968245,-46.375403,Sim,Baixa,353.5,Edifício Solaris,Não
MONICA BATALHA PRADO SAO VICENTE,CENTRO,"AV PRESIDENTE WILSON, 1473",11320000,-23.965281,-46.382123,Sim,Média,923.1,Ponto 5,Não
TOXICOLOGICO SAO VICENTE,CENTRO,"BARAO DO RIO BRANCO, 94",11310000,-23.96644,-46.386095,Sim,Média,530.7,Ponto 5,Não
MAXI EXAMES,CENTRO,"R JACOB EMERICK, 365",11310070,-23.967176,-46.385877,Sim,Média,490.8,Ponto 5,Não
TAMARA MACHADO FRACALANZA BOCCATELLI,CENTRO,"AVENIDA QUINTINO BOCAIUVA, 405",11320010,-23.967568,-46.384685,Sim,Média,568.4,Ponto 5,Não
INSTITUTO ORTOPEDICO ITARARE SAO VICENTE,CENTRO,"AV PRESIDENTE WILSON, 1340",11320920,-23.965492,-46.380825,Sim,Alta,915.1,Edifício Solaris,Não
SERVICO DE PERICIAS MEDICAS SAO VICENTE,CENTRO,"RUA FREI GASPAR, 637",11310010,-23.966083,-46.38569,Sim,Média,587.7,Ponto 5,Não
CTA BETINHO SAO VICENTE,CENTRO,"AV QUINTINO BOCAIUVA, 1261",11320010,-23.967086,-46.387824,Sim,Alta,367.6,Ponto 5,Não
SECRETARIA DE SAUDE DE SAO VICENTE,CENTRO,"RUA PADRE ANCHIETA, 462",11310040,-23.966264,-46.383546,Sim,Média,742.1,Ponto 5,Não
COMPLEXO DE ESPECIALIDADES MEDICAS SAO VICENTE,CENTRO,"RUA XV DE NOVEMBRO, 176",11310400,-23.967048,-46.386938,Sim,Alta,423.2,Ponto 5,Não
LABORATORIO DR SERGIO TAVOLARO PEREIRA SAO VICENTE,CENTRO,"RUA JOAO RAMALHO, 825",11310050,-23.96495,-46.385529,Sim,Média,695,Ponto 5,Não
SAO PEDRO ANALISES CLINICAS SAO VICENTE,CENTRO,"RUA IPIRANGA, 4",11310420,,,Sem coordenadas,,,,Sem coordenadas
INSTITUTO OFTALMOLOGICO ACCIOLY DE GUSMAO SAO VICENTE,CENTRO,"RUA AMADOR BUENO DA RIBEIRA, 68",11320060,-23.966794,-46.377159,Sim,Média,522.4,Edifício Solaris,Não
CLINICA PADRE ANCHIETA SAO VICENTE,CENTRO,"AV PRESIDENTE WILSON, 1136",11320000,-23.965742,-46.379113,Sim,Média,739.5,Edifício Solaris,Não
CLINICA MEDICA DR JOSE MARTINS FONTES SAO VICENTE,CENTRO,"RUA IPIRANGA, S/N",11310420,,,Sem coordenadas,,,,Sem coordenadas
UNIDADE MEDICA SAO VICENTE SAO VICENTE,CENTRO,"RUA IPIRANGA, 28",11310420,,,Sem coordenadas,,,,Sem coordenadas
CLINICA SAO VICENTE RAMALHO DIAGNOSES SAO VICENTE,CENTRO,"RUA IPIRANGA, 31",11310421,,,Sem coordenadas,,,,Sem coordenadas
HOSPITAL SAO JOSE SAO VICENTE,CENTRO,"RUA FREI GASPAR, 790",11310061,-23.965168,-46.386657,Sim,Alta,611.6,Ponto 5,Não
SAE CTA SERVICO DE ATENDIMENTO ESPECIALIZADO SAO VICENTE,CENTRO,"AV QUINTINO BOCAIUVA, 1261",11320010,-23.96935,-46.383804,Sim,Baixa,442.7,Ponto 2,Não
MAXILABOR SAO VICENTE,CENTRO,"R JACOB EMERICK, 365",11310070,-23.96827,-46.383707,Sim,Baixa,559.4,Ponto 2,Não
EDUARDO OREFICE SAO VICENTE,CENTRO,"AV PRESIDENTE WILSON, 1473",11320001,-23.964568,-46.383353,Sim,Alta,874.9,Ponto 5,Não
FARMACIA DE MANIPULACAO LEVEN SAO VICENTE,CENTRO,"R JACOB EMERICK, 393",11310071,-23.96827,-46.383707,Sim,Baixa,559.4,Ponto 2,Não
LASER PERUSSI SAO VICENTE,CENTRO,"RUA FREI GASPAR, 637",11310061,-23.955138,-46.40699,Sim,Alta,2412.7,Ponto 5,Não
ORTHO DENTS SAO VICENTE,CENTRO,"RUA PADRE ANCHIETA, 306",11310040,-23.965838,-46.383568,Sim,Média,767.5,Ponto 5,Não
LABORATORIO PAULISTA SAO VICENTE,CENTRO,"RUA IPIRANGA, 17",11310421,-23.965107,-46.38743,Sim,Alta,583.1,Ponto 5,Não
FALCONERES DE ALMEIDA OFTALMOLOGIA E MEDICINA SV,CENTRO,"RUA QUINZE DE NOVEMBRO, 576",11310400,-23.96317,-46.385256,Sim,Alta,875.3,Ponto 5,Não
INSTITUTO SEGUMED UNIDADE SAO VICENTE,CENTRO,"FREI GASPAR, 790",11310400,-23.965022,-46.386472,Sim,Alta,635.1,Ponto 5,Não
OMEGA3 LABORATORIO DE ANALISES CLINICAS SAO VICENTE,CENTRO,"RUA FREI GASPAR, 299",11310060,-23.968137,-46.381835,Sim,Média,655,Ponto 2,Não
CARLOS VILAR SAO VICENTE,CENTRO,"AV PRESIDENTE WILSON, 1473",11320001,-23.965376,-46.382029,Sim,Alta,920,Ponto 2,Não
VIVIANE AGUIAR YUMOTO FRIAS SAO VICENTE,CENTRO,"BENJAMIN CONSTANT, 74",11310500,-23.963538,-46.384557,Sim,Alta,880,Ponto 5,Não
CLINICA MEDICA LIMA DIAS SAO VICENTE,CENTRO,"PRESIDENTE WILSON, 1473",11320915,-23.96532,-46.382016,Sim,Alta,926.2,Ponto 2,Não
ACADEMIA DE MEDICINA FISICA E REABILITACAO DE SAO VICENTE,CENTRO,"SAO VICENTE, 62",11310420,,,Sem coordenadas,,,,Sem coordenadas
ANTONIO E M CURADO SAO VICENTE,CENTRO,"R FREI GASPAR, 86",11310061,,,Sem coordenadas,,,,Sem coordenadas
CLINICA MEDICA BOA VISTA SAO VICENTE,CENTRO,"RUA TREZE DE MAIO, 336",11310330,-23.966484,-46.390183,Sim,Alta,389.1,Ponto 5,Não
CLINICA RENASCER SAO VICENTE,CENTRO,"AV CAPITAO MOR AGUIAR, 445",11310200,-23.967268,-46.391927,Sim,Média,378.1,Ponto 5,Não
FOCUS CLINICA OFTAMOLOGICA SAO VICENTE,CENTRO,"RUA XV DE NOVEMBRO, 576",11310040,-23.965002,-46.385567,Sim,Média,688,Ponto 5,Não
LABORATORIO ANALISES MED DR JOSE RODRIGUES SAO VICENTE,CENTRO,"RUA IPIRANGA, 321",11310421,,,Sem coordenadas,,,,Sem coordenadas
CELSO DA SILVA NORONHA SAO VICENTE,CENTRO,"RUA FREI GASPAR, 739",11320120,-23.965607,-46.386594,Sim,Alta,573.2,Ponto 5,Não
ROBERTO DI GIOVANNI VERGARA SAO VICENTE,CENTRO,"RUA FREI GASPAR, 305",11310061,,,Sem coordenadas,,,,Sem coordenadas
ROGERIA RITA DE CASSIA PALMA SAO VICENTE,CENTRO,"RUA FREI GASPAR, 739",11310061,-23.965612,-46.386707,Sim,Alta,566.6,Ponto 5,Não
CLINICA DR ROGERIO CORSO SAO VICENTE,CENTRO,"JACOB EMERICK, 365",11310071,-23.967764,-46.385135,Sim,Baixa,517.8,Ponto 5,Não
LOURDES APARECIDA NORONHA SAO VICENTE,CENTRO,"AV PRESIDENTE WILSON, 1473",11320001,,,Sem coordenadas,,,,Sem coordenadas
DR MILTON FERREIRA SAO VICENTE,CENTRO,"AVENIDA PRESIDENTE WILSON, 1473",11310010,-23.965303,-46.382268,Sim,Média,909.5,Ponto 5,Não
ANA PAULA VILLANI BORDA SAO VICENTE,CENTRO,"RUA FREI GASPAR, 795",11310060,-23.965291,-46.387222,Sim,Alta,573,Ponto 5,Não
LILIAN GRELLET SAO VICENTE,CENTRO,"R FREI GASPAR, 931",11310060,,,Sem coordenadas,,,,Sem coordenadas
ANTONIO JOSE GOUVEIA SAO VICENTE,CENTRO,"AV PRESIDENTE WILSON, 1473",11390010,,,Sem coordenadas,,,,Sem coordenadas
MARIA CRISTINA CHIEFFI AAGAARD SAO VICENTE,CENTRO,"R FREI GASPAR, 637",11390010,,,Sem coordenadas,,,,Sem coordenadas
GRAZIELA DE MELO RABELO FRAYHA SAO VICENTE,CENTRO,"RUA QUINZE DE NOVEMBRO, 576",11310400,-23.965569,-46.386701,Sim,Alta,571,Ponto 5,Não
SANDRA MARA BARBOSA DOS SANTOS SAO VICENTE,CENTRO,"AV PRESIDENTE WILSON, 1473",11320001,-23.965412,-46.382251,Sim,Média,904.1,Ponto 5,Não
TERESA CRISTINA C FRABREGA DE CARVALHO SAO VICENTE,CENTRO,"R PADRE ANCHIETA, 331",11310040,-23.967204,-46.384594,Sim,Média,596.3,Ponto 5,Não
GILMAR ALVES DE OLIVEIRA SAO VICENTE,CENTRO,"AV PREFEITO JOSE MONTEIRO, 422",11340190,,,Sem coordenadas,,,,Sem coordenadas
IBV INSTITUTO BRASILEIRO DE VISAO SAO VICENTE,CENTRO,"RUA FREI GASPAR, 739",11390010,-23.965656,-46.386648,Sim,Alta,565.6,Ponto 5,Não
MAURITY RIBEIRO DE FREITAS SAO VICENTE,CENTRO,"AVENIDA PRESIDENTE WILSON, 1473",11320915,,,Sem coordenadas,,,,Sem coordenadas
THAIS MARIA PEREZ LARANJA GONCALVES SAO VICENTE,CENTRO,"JOAO RAMALHO, 630",11310000,,,Sem coordenadas,,,,Sem coordenadas
FABIANA DO CARMO PELEGRINI SAO VICENTE,CENTRO,"FREI GASPAR, 931",11310060,,,Sem coordenadas,,,,Sem coordenadas
ORTOSERV SAO VICENTE,CENTRO,"PADRE ANCHIETA, 331",11310000,,,Sem coordenadas,,,,Sem coordenadas
RENAULD TEOFILO BELLEGARD FILHO SAO VICENTE,CENTRO,"PADRE ANCHIETA, 331",11310000,,,Sem coordenadas,,,,Sem coordenadas
JEAN KHATER FILHO SAO VICENTE,CENTRO,"RUA MARTIM AFONSO, 230",11310010,-23.967406,-46.385945,Sim,Média,469.6,Ponto 5,Não
OLGAIR TEREZINHA DO AMARAL BROD SAO VICENTE,CENTRO,"AVENIDA PRESIDENTE WILSON, 1473",11320001,,,Sem coordenadas,,,,Sem coordenadas
SILVIA HELENA BOAVENTURA SAO VICENTE,CENTRO,"AV PRESIDENTE WILSON, 1147",11320001,-23.96257,-46.37967,Sim,Média,940,Edifício Solaris,Não
SHEILA PROENCA DINIZ SAO VICENTE,CENTRO,"AV PRESIDENTE WILSON, 1473",11320915,-23.96546,-46.382187,Sim,Média,905.4,Ponto 2,Não
ELMA SOBRAL DE GOES SAO VICENTE,CENTRO,"RUA FREI GASPAR, 739",11310060,,,Sem coordenadas,,,,Sem coordenadas
CLAYTON TIMOTEO BUENO RAMOS SAO VICENTE,CENTRO,"RUA JACOB EMMERICH, 379",11310070,-23.967653,-46.385112,Sim,Baixa,525.8,Ponto 5,Não
MARCELO HENRIQUE BRITO DOS SANTOS SAO VICENTE,CENTRO,"RUA FREI GASPAR, 931",11310061,,,Sem coordenadas,,,,Sem coordenadas
JULIO CESAR ALBINO SAO VICENTE,CENTRO,"RUA FREI GASPAR, 931",11310061,,,Sem coordenadas,,,,Sem coordenadas
JUREMA DA SILVA SAO VICENTE,CENTRO,"RUA FREI GASPAR, 931",11310000,-23.964547,-46.388612,Sim,Alta,609.5,Ponto 5,Não
SIMONE CABRAL REBELO ASSUNCAO SAO VICENTE,CENTRO,"RUA FREI GASPAR, 931",11310061,,,Sem coordenadas,,,,Sem coordenadas
JOSE GUSTAVO LOPES TAVARES SAO VICENTE,CENTRO,"RUA JACOB EMMERICH, 365",11310071,-23.967755,-46.385015,Sim,Baixa,529.1,Ponto 5,Não
ANTONIO JOSE ORSI FALLEIROS SAO VICENTE,CENTRO,"RUA IPIRANGA, 333",11310000,-23.96469,-46.387388,Sim,Alta,627.7,Ponto 5,Não
ANA PAULA RODRIGUES FERNANDES SOUZA MARQUES SAO VICENTE,CENTRO,"FREI GASPAR, 931",11310080,,,Sem coordenadas,,,,Sem coordenadas
VICENTINA PORTOLESI GONCALVES SAO VICENTE,CENTRO,"FREI GASPAR, 739",11310080,,,Sem coordenadas,,,,Sem coordenadas
ALFREDO RECLUSA ILSE SAO VICENTE,CENTRO,"FREI GASPAR, 739",11310000,,,Sem coordenadas,,,,Sem coordenadas
JULIO CESAR MENDONCA PINHEIRO SAO VICENTE,CENTRO,"AV PRESIDENTE WILSON, 1473",11320001,-23.96544,-46.382061,Sim,Alta,912.1,Ponto 2,Não
PAULO ROBERTO ALONSO CARNEIRO SAO VICENTE,CENTRO,"IPIRANGA, 333",11310060,-23.964665,-46.387425,Sim,Alta,628.9,Ponto 5,Não
RICARDO GONCALVES SAO VICENTE,CENTRO,"RUA FREI GASPAR, 739",11310061,,,Sem coordenadas,,,,Sem coordenadas
JOSE LUIZ SOARES MAGALHAES SAO VICENTE,CENTRO,"RUA IPIRANGA, 333",11310000,,,Sem coordenadas,,,,Sem coordenadas
CARLY ARIGON FELIPPI SAO VICENTE,CENTRO,"AV PRESIDENTE WILSON, 1147",11310050,,,Sem coordenadas,,,,Sem coordenadas
ROSEMARY MENDES FRANCISCO SAO VICENTE,CENTRO,"AV PRESIDENTE WILSON, 1473",11320001,,,Sem coordenadas,,,,Sem coordenadas
VERAS CLINICA MEDICA SAO VICENTE,CENTRO,"RUA IPIRANGA, 333",11310000,-23.964643,-46.387393,Sim,Alta,632.4,Ponto 5,Não
CASSIUS MARCELLIUS CAMPOS BITTENCOURT SAO VICENTE,CENTRO,"AV PRESIDENTE WILSON, 1473",11320001,-23.965367,-46.38224,Sim,Média,907.9,Ponto 5,Não
GERSON ARANHA SAO VICENTE,CENTRO,"RUA FREI GASPAR, 739",11310060,-23.965625,-46.386685,Sim,Alta,566.5,Ponto 5,Não
VIVIANA ZAPAROLLI DE OLIVEIRA MENEZES SAO VICENTE,CENTRO,"AV CAP MOR AGUIAR, 658",11310100,,,Sem coordenadas,,,,Sem coordenadas
DULCE MARIA OLIVEIRA SANTOS FREIRE SAO VICENTE,CENTRO,"RUA XV DE NOVEMBRO, 260",11310080,,,Sem coordenadas,,,,Sem coordenadas
DENISE LIE MOLINA GROSSI SAO VICENTE,CENTRO,"AV CAPITAO MOR AGUIAR, 658",11310020,,,Sem coordenadas,,,,Sem coordenadas
CENTRO TERAPEUTICO SAO VICENTE,CENTRO,"RUA MARTIM AFONSO, 251",11310010,-23.967228,-46.385782,Sim,Média,494.8,Ponto 5,Não
CENTRO MEDICO SAO LUIZ GONZAGA SC LTDA SAO VICENTE,CENTRO,"AV CAPITAO MOR AGUIAR, 658",11310903,-23.965376,-46.391411,Sim,Alta,539.4,Ponto 5,Não
MARIA LUIZA MOURA SALES SAO VICENTE,CENTRO,"RUA FREI GASPAR, 931",11310061,-23.964537,-46.388633,Sim,Alta,610.2,Ponto 5,Não
HELVECIO SIQUEIRA SAO VICENTE,CENTRO,"RUA BENJAMIM CONSTANT, 46",11310100,,,Sem coordenadas,,,,Sem coordenadas
EDISON GERALDO TAGLIETA SAO VICENTE,CENTRO,"RUA JOAO RAMALHO, 1055",11310100,,,Sem coordenadas,,,,Sem coordenadas
MARCIA ROSSETTO SAO VICENTE,CENTRO,"BENJAMIN CONSTANT, 61",11310500,-23.963693,-46.385101,Sim,Alta,834.3,Ponto 5,Não
JOSE MARIA EVANGELISTA BARBOSA DOS SANTOS SAO VICENTE,CENTRO,"RUA EXPEDICIONARIOS VICENTINOS, 80",11310030,-23.96426,-46.38502,Sim,Alta,787.4,Ponto 5,Não
MAX MATOS SERRUYA SAO VICENTE,CENTRO,"RUA EXPEDICIONARIOS VICENTINOS, 80",11310510,-23.964796,-46.384303,Sim,Média,788.5,Ponto 5,Não
ROBERTO ALCANTARA ZARATE SAO VICENTE,CENTRO,"AV PRESIDENTE WILSON, 1033",11320100,-23.967353,-46.378582,Sim,Média,663,Edifício Solaris,Não
HELCIO LUIS RIGO GADDINI SAO VICENTE,CENTRO,"AV PRESIDENTE WILSON, 1033",11320100,-23.967372,-46.37855,Sim,Média,659.7,Edifício Solaris,Não
ELI CELICE DIAS SAO VICENTE,CENTRO,"AV PRESIDENTE WILSON, 1033",11320100,-23.968662,-46.375718,Sim,Baixa,398.6,Edifício Solaris,Não
CLINICA RADIOLOGICA DE SANTOS SC LTDA SAO VICENTE,CENTRO,"RUA IPIRANGA, 263",11310421,-23.965182,-46.387705,Sim,Alta,565.1,Ponto 5,Não
ALETHEA GOUVEIA DIAS CABRAL SAO VICENTE,CENTRO,"RUA MARTIM AFONSO, 251",11310010,,,Sem coordenadas,,,,Sem coordenadas
FUNDASV FUNDACAO SAO VICENTE SAO VICENTE,CENTRO,"AVPRESIDENTE WILSON, 1473",11320001,,,Sem coordenadas,,,,Sem coordenadas
MARIA CRISTINA SILVA PINTO PIEDADE SAO VICENTE,CENTRO,"RUA JOAO RAMALHO, 1100",11310050,,,Sem coordenadas,,,,Sem coordenadas
CARLOS ALBERTO SILVA PINTO SAO VICENTE,CENTRO,"RUA JOAO RAMALHO, 1100",11310090,,,Sem coordenadas,,,,Sem coordenadas
JOSE AUGUSTO FALEIROS DINIZ SAO VICENTE,CENTRO,"PRACA DA BANDEIRA, 23",11310030,,,Sem coordenadas,,,,Sem coordenadas
VALDIRENE FATIMA DE OLIVEIRA SIQUEIRA SAO VICENTE,CENTRO,"RUA BENJAMIN CONSTANT, 46",11310000,,,Sem coordenadas,,,,Sem coordenadas
GILBERTO SIQUEIRA SAO VICENTE,CENTRO,"RUA BENJAMIN CONSTANT, 46",11310000,,,Sem coordenadas,,,,Sem coordenadas
OSWALDIR DIAS SAO VICENTE,CENTRO,"RUA BENJAMIN CONSTANT, 46",11310000,,,Sem coordenadas,,,,Sem coordenadas
MARIA LYGIA TOLEDO SAWAYA ALVES SAO VICENTE,CENTRO,"RUA FREI GASPAR, 637",11310061,,,Sem coordenadas,,,,Sem coordenadas
ODONTO PREV SAO VICENTE,CENTRO,"AV PRESIDENTE WILSON, 1169",11320001,,,Sem coordenadas,,,,Sem coordenadas
CLINICA MEDICA SAO JOSE SAO VICENTE,CENTRO,"TIBIRICA, 439",11320020,-23.965469,-46.382051,Sim,Alta,909.5,Ponto 2,Não
ADRIANO DE SOUZA MIZAEL SAO VICENTE,CENTRO,"BENJAMIN CONSTANT, 61",11310500,-23.963788,-46.385095,Sim,Alta,825.9,Ponto 5,Não
CENTER LASER SAO VICENTE,CENTRO,"RUA JACOB EMMERICH, 365",11310071,,,Sem coordenadas,,,,Sem coordenadas
WANESSA VAZ FERNANDES PEREIRA SAO VICENTE,CENTRO,"RUA JACOB EMMERICH, 878",11310070,,,Sem coordenadas,,,,Sem coordenadas
ANGELO DOS SANTOS PINHEIRO SAO VICENTE,CENTRO,"RUA JACOB EMMERICH, 379",11310071,-23.968518,-46.385784,Sim,Baixa,422.5,Ponto 5,Não
MEDIALISE CENTRO DE HEMODIALISE SAO VICENTE,CENTRO,"TREZE DE MAIO, 175",11310330,-23.966999,-46.388643,Sim,Alta,343.1,Ponto 5,Não
CLINICA FRAYHA PEDIATRIA ALERGIA IMUNOLOGIA E VACINAS SV,CENTRO,"QUINZE DE NOVEMBRO, 576",11310400,-23.966273,-46.386661,Sim,Alta,508.3,Ponto 5,Não
ESPACO ALARAFRA SAO VICENTE,CENTRO,"RUA QUINZE DE NOVEMBRO, 576",11310400,-23.963783,-46.385436,Sim,Alta,807.5,Ponto 5,Não
NEURO INFANCIA SAO VICENTE,CENTRO,"IPIRANGA, 266",11310420,-23.965244,-46.38741,Sim,Alta,569.8,Ponto 5,Não
LABI EXAMES UNIDADE SAO VICENTE,CENTRO,"JOAO RAMALHO, 570",11310050,-23.966048,-46.382968,Sim,Média,804.4,Ponto 5,Não
NF ODONTOLOGIA A ARTE DE SORRIR SAO VICENTE,CENTRO,"FREI GASPAR, 910",11310061,-23.964143,-46.387751,Sim,Alta,673.3,Ponto 5,Não
POSTO DE VACINACAO BRISAMAR SV,CENTRO,"RUA FREI GASPAR, 365",11310060,-23.968003,-46.383924,Sim,Baixa,581.9,Ponto 2,Não
HOME SAUDE VIDA SAO VICENTE,CENTRO,"FREI GASPAR, 739",11310060,-23.965496,-46.386734,Sim,Alta,576.2,Ponto 5,Não
MYLENA VIEIRA ODONTOLOGIA SAO VICENTE,CENTRO,"QUINZE DE NOVEMBRO, 576",11310400,-23.963785,-46.385385,Sim,Alta,810,Ponto 5,Não
ZAQUENIRA BATISTA BELCHIOR DE OLIVEIRA SAO VICENTE,CENTRO,"RUA MARQUES DE SAO VICENTE, 166",11310180,-23.968871,-46.390693,Sim,Média,160.8,Ponto 5,Sim
ODONTO MATER SAO VICENTE,CENTRO,"TIBIRICA, 373",11320020,-23.966019,-46.382367,Sim,Média,840.9,Ponto 2,Não
LUCIANE VERGINIA SANTOS DA SILVA MENDIETA SV,CENTRO,"JACOB EMERICK, 365",11310071,-23.967803,-46.385039,Sim,Baixa,524.5,Ponto 5,Não
DROGARIAS NISSEI SAO VICENTE,CENTRO,"AV PRESIDENTE WILSON, 218",11320000,-23.97103,-46.370977,Sim,Baixa,421.1,Edifício Solaris,Não
ENDOSONI SAO VICENTE,CENTRO,"RUA XV DE NOVEMBRO, 576",11310400,-23.963785,-46.385385,Sim,Alta,810,Ponto 5,Não
INSTITUTO PAZ PSICOLOGIA DE A A Z LTDA SAO VICENTE,CENTRO,"PRESIDENTE WILSON, 1473",11320915,-23.965359,-46.38204,Sim,Alta,921.3,Ponto 2,Não
ESTIMULO NEURO SAO VICENTE,CENTRO,"FREI GASPAR, 931",11310060,-23.964783,-46.38844,Sim,Alta,587,Ponto 5,Não
MAXI EXAMES SAO VICENTE,CENTRO,"RUA JACOB EMERICK, 365",11310070,-23.968274,-46.383699,Sim,Baixa,559.3,Ponto 2,Não
CLINICA MULTIDICIPLINAR SERSINAPSI SAO VICENTE,CENTRO,"R JOAO RAMALHO, 825",11310050,-23.966083,-46.383092,Sim,Média,791.7,Ponto 5,Não
ACS VIDA,CENTRO,"FREI GASPAR, 739",11310061,-23.965607,-46.3866,Sim,Alta,572.8,Ponto 5,Não
UNIDADE DE SAUDE DA MULHER SV,CENTRO,"R XV DE NOVEMBRO, 176",11310400,-23.96705,-46.386927,Sim,Alta,423.8,Ponto 5,Não
IOFA INSTITUTO ORAL E FACIAL SV,CENTRO,"JOAO RAMALHO, 570",11310050,-23.965999,-46.383177,Sim,Média,789.6,Ponto 5,Não
ANTONIO ARNALDO ROMAO FILHO SAO VICENTE,CENTRO,"RUA JOAO RAMALHO, 825",11310050,-23.965855,-46.383539,Sim,Média,768.7,Ponto 5,Não
FLAVIO PROENCA MARTINS DE OLIVEIRA SAO VICENTE,CENTRO,"AV PRESIDENTE WILSON, 1033",11320001,-23.967229,-46.378593,Sim,Média,664.3,Edifício Solaris,Não
COD RADIOGRAFIAS SAO VICENTE,CENTRO,"RUA JACOB EMMERICH, 379",11310071,-23.967798,-46.385139,Sim,Baixa,515.7,Ponto 5,Não
APARECIDO MAURILO ZABINI JUNIOR,CENTRO,"AVENIDA PRESIDENTE WILSON, 1473",11320915,-23.965387,-46.382207,Sim,Média,909.4,Ponto 5,Não
INSTITUTO DE REABILITACAO FISIOLIFE SAO VICENTE,CENTRO,"RUA JACOB EMERICH, 365",11310071,-23.96776,-46.385015,Sim,Baixa,528.8,Ponto 5,Não
PAJP ODONTO LTDA SAO VICENTE,CENTRO,"RUA QUINZE DE NOVEMBRO, 576",11310400,-23.963599,-46.385349,Sim,Alta,829.5,Ponto 5,Não
ENEIDA RIVA FERREIRA SAO VICENTE,CENTRO,"RUA FREI GASPAR, 637",11310061,,,Sem coordenadas,,,,Sem coordenadas
CREFORM SISTEMA DE SAUDE SAO VICENTE,CENTRO,"RUA RANGEL PESTANA, 209",11320120,,,Sem coordenadas,,,,Sem coordenadas
KATYA CHRISTINA DA COSTA FERNANDES SAO VICENTE,CENTRO,"AV ANTONIO EMERICH, 245",11390001,,,Sem coordenadas,,,,Sem coordenadas
PARTSUS SAO VICENTE,CENTRO,"FREI GASPAR, 739",11310061,-23.965585,-46.386589,Sim,Alta,575.5,Ponto 5,Não
CONSULTORIO MEDICO DR LOURENCO SAO VICENTE,CENTRO,"AVENIDA PRESIDENTE WILSON, 1473",11320001,,,Sem coordenadas,,,,Sem coordenadas
ARMIDA MARIA SOLA CECCHI FERNANDES SAO VICENTE,CENTRO,"RUA PADRE ANCHIETA, 331",11310040,-23.967735,-46.38477,Sim,Baixa,552.3,Ponto 5,Não
LABORATORIO PASTEUR DE ANALISES CLINICAS I SAO VICENTE,CENTRO,"RUA FREI GASPAR, 739",11310061,-23.965618,-46.386674,Sim,Alta,567.8,Ponto 5,Não
CESAR ALVES MALERBA SAO VICENTE,CENTRO,"RUA BENJAMIN CONSTANT, 61",11310500,-23.963491,-46.385406,Sim,Alta,836.8,Ponto 5,Não
MARIA ANGELICA DA SILVA ALMEIDA SAO VICENTE,CENTRO,"R BENJAMIN CONSTANT, 61",11310071,-23.963303,-46.385404,Sim,Alta,854.9,Ponto 5,Não
KAOLU NOGUI SAO VICENTE,CENTRO,"RUA MARTIM AFONSO, 230",11310010,-23.967526,-46.38575,Sim,Baixa,478,Ponto 5,Não
MARIA JOSE DE ABREU SAO VICENTE,CENTRO,"R JACOB EMERICH, 379",11310071,-23.967761,-46.385142,Sim,Baixa,517.3,Ponto 5,Não
PERUSSI CARVALHO OFTALMOLOGISTAS ASSOCIADOS LTDA SAO VIC,CENTRO,"RUA FREI GASPAR, 637",11310061,-23.966058,-46.385723,Sim,Média,587.5,Ponto 5,Não
CHRISTIAN MARCOS ARANA ENRIQUEZ SV,CENTRO,"QUINZE DE NOVEMBRO, 576",11310400,-23.963785,-46.385385,Sim,Alta,810,Ponto 5,Não
LOTO MD SAO VICENTE,CENTRO,"FREI GASPAR, 931",11310061,-23.948925,-46.412649,Sim,Alta,3306.4,Ponto 5,Não
IGESP SAO VICENTE,CENTRO,"JACOB EMERICK, 921",11310071,-23.964975,-46.391263,Sim,Alta,577.1,Ponto 5,Não
LUIZ CARLOS ANTUNES LOPES SAO VICENTE,CENTRO,"RUA FREI GASPAR, 438",11310060,,,Sem coordenadas,,,,Sem coordenadas
ALCEVIDAS II SAO VICENTE,CENTRO,"QUINZE DE NOVEMBRO, 576",11310400,-23.963785,-46.385385,Sim,Alta,810,Ponto 5,Não
CA ODONTOLOGIA SAO VICENTE,CENTRO,"RUA PADRE ANCHIETA, 306",11310040,,,Sem coordenadas,,,,Sem coordenadas
MCM CENTER ODONTO SAO VICENTE,CENTRO,"RUA JOAO RAMALHO, 825",11310050,,,Sem coordenadas,,,,Sem coordenadas
CINTIA MARA AOKI TRONOLONI SAO VICENTE,CENTRO,"RUA FREI GASPAR, 931",11310061,-23.9647,-46.388461,Sim,Alta,595.6,Ponto 5,Não
GASTROENDOFIT SERVICOS DE ENDOSCOPIA SAO VICENTE,CENTRO,"FREI GASPAR, 790",11310061,-23.965347,-46.386444,Sim,Alta,605.7,Ponto 5,Não
M G DA SILVA NETO CLINICA SAO VICENTE,CENTRO,"JOAO RAMALHO, 825",11310050,-23.964911,-46.385511,Sim,Média,699.5,Ponto 5,Não
IMD SAO VICENTE,CENTRO,"RUA JACOB EMERICK, 921",11310071,-23.967373,-46.38449,Sim,Média,596.1,Ponto 5,Não
ATEF MOUBAREC SERVICOS ODONTOLOGICOS SAO VICENTE,CENTRO,"QUINZE DE NOVEMBRO, 576",11310400,-23.963803,-46.385242,Sim,Alta,816.2,Ponto 5,Não
WO ODONTOLOGIA SAO VICENTE,CENTRO,"QUINZE DE NOVEMBRO, 576",11310400,-23.963785,-46.385385,Sim,Alta,810,Ponto 5,Não
MACRINO DA SILVA FILHO SAO VICENTE,CENTRO,"RUA JOAO RAMALHO, 825",11310510,,,Sem coordenadas,,,,Sem coordenadas
ALMAI INSTITUTO DE NEURODESENVOLVIMENTO INFANTIL SV,CENTRO,"RUA SANTA CRUZ, 134",11310290,-23.968118,-46.39015,Sim,Alta,210,Ponto 5,Sim
RENATO VANZELLA VICENTE SAO VICENTE,CENTRO,"BENEDITO CALIXTO, 182",11320070,-23.967474,-46.376148,Sim,Média,415.8,Edifício Solaris,Não
EVOLUIR CLINICA NEURO DESENVOLVIMENTO SV,CENTRO,"JOAO RAMALHO, 803",11310050,-23.966222,-46.383005,Sim,Média,791,Ponto 5,Não
LETICIA ALMEIDA TARRACO MARQUES SV,CENTRO,"JOAO RAMALHO, 825",11310050,-23.966185,-46.383231,Sim,Média,773.7,Ponto 5,Não
SER E CRESCER SAO VICENTE,CENTRO,"QUINZE DE NOVEMBRO, 576",11310400,-23.963827,-46.385398,Sim,Alta,805.4,Ponto 5,Não
POLICLINICA IPIRANGA,CENTRO,"RUA IPIRANGA, 36",11310420,-23.96722,-46.388319,Sim,Alta,331.5,Ponto 5,Não
COMPLEXO REGULADOR SAO VICENTE,CENTRO,"RUA PADRE ANCHIETA, 462",11310010,-23.966479,-46.383864,Sim,Média,702,Ponto 5,Não
UNIDADE MOVEL ODONTOLOGICA SAO VICENTE,CENTRO,"RUA PADRE ANCHIETA, 462",11310040,-23.966379,-46.383744,Sim,Média,718.3,Ponto 5,Não
LUCYMARA SALVIA,CENTRO,"AV PRESIDENTE WILSON, 1473",11310000,-23.965411,-46.381986,Sim,Alta,918,Ponto 2,Não
TOMOSANTOS,CENTRO,"PRACA BERNARDINO DE CAMPOS, 339",11310300,-23.967714,-46.388435,Sim,Alta,276.7,Ponto 5,Sim
TORTIA ODONTOLOGIA,CENTRO,"RUA JACOB EMMERICK, 365",11310071,,,Sem coordenadas,,,,Sem coordenadas
CATARINA RAMOS MARTINS SAO VICENTE,CENTRO,"PRACA BARAO DO RIO BRANCO, 94",11310000,-23.966827,-46.385822,Sim,Média,520.2,Ponto 5,Não
WILSON CESAR BUENO,CENTRO,"RUA SOROCABANA, 93",11310450,,,Sem coordenadas,,,,Sem coordenadas
BRUNO FROES LIMA LAFRAIA SAO VICENTE,CENTRO,"RUA JOAO RAMALHO, 574",11310050,,,Sem coordenadas,,,,Sem coordenadas
CARINA MARTINS CARNEIRO FRANCISCO SAO VICENTE,CENTRO,"RUA FREI GASPAR, 637",11310061,,,Sem coordenadas,,,,Sem coordenadas
RAIA DROGASIL FILIAL 181 SV,CENTRO,"FREI GASPAR, 504",11310060,-23.966553,-46.384298,Sim,Média,660.8,Ponto 5,Não
RAIA DROGASIL LOJA 0017 SV,CENTRO,"FREI GASPAR, 686",11310061,-23.965808,-46.385779,Sim,Média,604.6,Ponto 5,Não
NILTON LUIZ BRANCO,CENTRO,"RUA FREI GASPAR, 773",11310061,-23.965517,-46.386816,Sim,Alta,570,Ponto 5,Não
IACS XV DE NOVEMBRO SAO VICENTE,CENTRO,"QUINZE DE NOVEMBRO, 313",11310400,-23.965757,-46.386608,Sim,Alta,558.4,Ponto 5,Não
RICARDO DE SALLES JUNQUEIRA,CENTRO,"RUA FREI GASPAR, 548",11310060,-23.966405,-46.384628,Sim,Média,643.5,Ponto 5,Não
CLINIMATER SAO VICENTE,CENTRO,"RUA IPIRANGA, 339",11310421,,,Sem coordenadas,,,,Sem coordenadas
CONSULTORIO ODONTOLOGICO CRISTIANE ROSA DOS SANTOS S VIC,CENTRO,"RUA JACOB EMMERICH, 379",11310071,-23.967599,-46.385106,Sim,Baixa,529.2,Ponto 5,Não
CONSULTORIO DE PSICOLOGIA VANDA DO CARMO L DIAS S VICENTE,CENTRO,"RUA IPIRANGA, 345",11310400,,,Sem coordenadas,,,,Sem coordenadas
CLINICA DE VACINACAO IMUNITI LTDA,CENTRO,"AV PRESIDENTE WILSON, 1473",11320001,,,Sem coordenadas,,,,Sem coordenadas
LABORATORIO DE ANALISES CLINICAS CELLULA MATER SAO VICENTE,CENTRO,"RUA VISCONDE DE TAMANDARE, 499",11310441,-23.965033,-46.390267,Sim,Alta,550.2,Ponto 5,Não
MP FISIOTERAPIA SAO VICENTE,CENTRO,"RUA FREI GASPAR, 739",11310060,-23.965542,-46.386695,Sim,Alta,573.9,Ponto 5,Não
MARIA CONCEICAO PEREZ DOMINGUES SAO VICENTE,CENTRO,"RUA JACOB EMMERICK, 379",11310071,,,Sem coordenadas,,,,Sem coordenadas
CONSULTORIO ODONTOLOGICO DRA VIRGINIA AZEVEDO SAO VICENTE,CENTRO,"RUA FREI GASPAR, 739",11310061,-23.965607,-46.386546,Sim,Alta,575.8,Ponto 5,Não
DAY CENTER CIRURGIAS SAO VICENTE,CENTRO,"AV PRESIDENTE WILSON, 1136",11320000,,,Sem coordenadas,,,,Sem coordenadas
NASO NUCLEO DE ASSISTENCIA A SAUDE ODONTOLOGICA SV,CENTRO,"PRACA BARAO DO RIO BRANCO, 187",11380080,,,Sem coordenadas,,,,Sem coordenadas
CAIXA DE SAUDE E PECULIO DOS SERVIDORES MUN DE SAO VICENTE,CENTRO,"R FREI GASPAR, 157",11310060,-23.968154,-46.381716,Sim,Média,660.2,Ponto 2,Não
FISIOTERAPIA INTEGRADA SAO VICENTE,CENTRO,"RUA FREI GASPAR, 739",11310061,,,Sem coordenadas,,,,Sem coordenadas
CONSULTORIO DE PSICOLOGIA DRA EMANOELE ALMEIDA MOURA,CENTRO,"RUA PADRE ANCHIETA, 331",11310040,,,Sem coordenadas,,,,Sem coordenadas
AMBULATORIO ANA COSTA DE SAO VICENTE,CENTRO,"AV PRESIDENTE WILSON, 772",11320000,-23.968662,-46.375718,Sim,Baixa,398.6,Edifício Solaris,Não
CEO III INSULAR SAO VICENTE,CENTRO,"AV QUINTINO BOCAIUVA, 1261",11320010,-23.963555,-46.381297,Sim,Média,1030.4,Edifício Solaris,Não
EDUARDO CONDE DA SILVA SAO VICENTE,CENTRO,"RUA FREI GASPAR, 739",11310061,-23.965571,-46.386685,Sim,Alta,571.6,Ponto 5,Não
INST DE OFTALMOLOGIA DA B SANTISTA IOBS S VICENTE,CENTRO,"RUA JOAO RAMALHO, 825",11310050,,,Sem coordenadas,,,,Sem coordenadas
CATH CENTRO DE ATEND A TUBERCULOSE E HANSENIASE SV,CENTRO,"RUA BENEDITO CALIXTO, 275",11320070,-23.966759,-46.375965,Sim,Média,402.9,Edifício Solaris,Não
SUCEN SERVICO REGIONAL 02 SAO VICENTE,CENTRO,"RUA JOAO RAMALHO, 587",11310050,-23.963,-46.392,Sim,Alta,809,Ponto 5,Não
OSWALDO GUAPO SAO VICENTE,CENTRO,"RUA QUINZE DE NOVEMBRO, 260",11310400,-23.966443,-46.386535,Sim,Alta,501.2,Ponto 5,Não
HOSPITAL E MATERNIDADE MUNICIPAL DE SAO VICENTE,CENTRO,"RUA IPIRANGA, 370",11310420,-23.964159,-46.387139,Sim,Alta,691.9,Ponto 5,Não
CLINICA TOTAL SAUDE SAO VICENTE,CENTRO,"RUA VISCONDE TAMANDARE, 481",11310440,,,Sem coordenadas,,,,Sem coordenadas
VISION CID LASER CLINICA DE OLHOS SAO VICENTE,CENTRO,"RUA JACOB EMERICK, 379",11310071,-23.967724,-46.385071,Sim,Baixa,525.7,Ponto 5,Não
CLINICA LAGON SAO VICENTE,CENTRO,"RUA PADRE ANCHIETA, 331",11340040,,,Sem coordenadas,,,,Sem coordenadas
CLINICA BRASIMED SAO VICENTE,CENTRO,"PRACA BARAO DO RIO BRANCO, 54",11310000,,,Sem coordenadas,,,,Sem coordenadas
BRENO NAPPI VENTURA SAO VICENTE,CENTRO,"RUA JOAO RAMALHO, 839",11310050,-23.964862,-46.385505,Sim,Média,704.3,Ponto 5,Não
ANGIOCORPORE SAO VICENTE,CENTRO,"FREI GASPAR, 365",11310935,-23.967127,-46.383625,Sim,Média,683.8,Ponto 2,Não
LABORATORIO ESPECIALIZADO DE DSTHIV SAO VICENTE,CENTRO,"RUA IPIRANGA, 353",11310421,-23.964216,-46.387245,Sim,Alta,682.1,Ponto 5,Não
RITA DE CASSIA DE SOUZA SA SAO VICENTE,CENTRO,"AVENIDA PRESIDENTE WILSON, 1473",11320010,-23.965328,-46.382261,Sim,Média,908.5,Ponto 5,Não
CLINICA RADIOLOGICA DO GUARUJA SAO VICENTE,CENTRO,"RUA IPIRANGA, 345",11310420,-23.964529,-46.387364,Sim,Alta,645.3,Ponto 5,Não
UP CENTRO AUDITIVO SAO VICENTE,CENTRO,"RUA JOAO RAMALHO, 803",11310050,-23.96518,-46.385355,Sim,Média,685.8,Ponto 5,Não
ANA MARIA ALVES RIBEIRO,CENTRO,"RUA PADRE ANCHIETA, 331",11310040,,,Sem coordenadas,,,,Sem coordenadas
TRASMONTANO SAO VICENTE,CENTRO,"RUA JACOB EMMERICH, 921",11310071,-23.966,-46.386,Sim,Média,573.8,Ponto 5,Não
CLINICA DE ESTETICA BOA FORMA,CENTRO,"RUA JOAO RAMALHO, 803",11310050,-23.965009,-46.385323,Sim,Média,702.6,Ponto 5,Não
CLINICA TOTAL SAUDE SAO VICENTE,CENTRO,"RUA VISCONDE DE TAMANDARE, 481",11310440,-23.96652,-46.390093,Sim,Média,384,Ponto 5,Não
RENASCER SERVICOS MEDICOS LTDA SAO VICENTE,CENTRO,"R SANTA CRUZ, 134",11310290,-23.965664,-46.376794,Sim,Média,517.5,Edifício Solaris,Não
SORRIDENTS CLINICAS ODONTOLOGICAS SAO VICENTE,CENTRO,"RUA XV DE NOVEMBRO, 81",11310400,-23.967884,-46.387433,Sim,Alta,320.6,Ponto 5,Não
ODONTOCOMPANY SAO VICENTE,CENTRO,"RUA JOAO RAMALHO, 560",11310050,-23.96593,-46.383041,Sim,Média,805.4,Ponto 5,Não
DENTISTE ODONTOLOGIA SAO VICENTE,CENTRO,"AMADOR BUENO DA RIBEIRA, 64",11320060,-23.968181,-46.377871,Sim,Média,597.5,Edifício Solaris,Não
FARMA CONDE FILIAL 462 SV,CENTRO,"PADRE ANCHIETA, 454",11310040,-23.966347,-46.383797,Sim,Média,715.8,Ponto 5,Não
CLINICA DE OLHOS EDUARDO PAULINO SAO VICENTE,CENTRO,"FREI GASPAR, 790",11310061,-23.965224,-46.386986,Sim,Alta,590.3,Ponto 5,Não
DROGASIL DS0775 SV,CENTRO,"PRESIDENTE WILSON, 962",11320000,-23.967318,-46.377598,Sim,Média,563,Edifício Solaris,Não
DROGARAIA LJ0163 SV,CENTRO,"PRESIDENTE WILSON, 256",11310913,-23.970202,-46.371599,Sim,Baixa,317.9,Edifício Solaris,Não
DALSON NERY CAIVANO SAO VICENTE,CENTRO,"RUA FREI GASPAR, 637",11310061,-23.966127,-46.38568,Sim,Média,584.9,Ponto 5,Não
CLINICA MEDICA IPIRANGA SAO VICENTE,CENTRO,"RANGEL PESTANA, 209",11320120,-23.971109,-46.373403,Sim,Baixa,437.3,Edifício Solaris,Não
PRO SAUDE VACINAS E APLICACOES,CENTRO,"AVENIDA PRESIDENTE WILSON, 1473",11320001,-23.965577,-46.382115,Sim,Média,896,Ponto 2,Não
JOAO FERNANDO CESAR GONCALVES DO NASCIMENTO SAO VICENTE,CENTRO,"RUA PADRE ANCHIETA, 64",11310040,,,Sem coordenadas,,,,Sem coordenadas
BIO LABORATORIO DE ANALISES CLINICAS DE SANTOS SAO VICENTE,CENTRO,"AV PRESIDENTE WILSON, 1473",11320001,-23.965264,-46.382141,Sim,Média,922.6,Ponto 5,Não
R R M PSICOLOGIA LTDA ME SAO VICENTE,CENTRO,"JOAO RAMALHO, 803",11310050,-23.96503,-46.385326,Sim,Média,700.6,Ponto 5,Não
CLINICA DE IMAGEM SAO VICENTE SAO VICENTE,CENTRO,"IPIRANGA, 339",11310421,-23.96518,-46.387434,Sim,Alta,575.4,Ponto 5,Não
CLINICA CDAD JCC,CENTRO,"FREI GASPAR, 790",11310902,-23.965352,-46.386353,Sim,Alta,610.3,Ponto 5,Não
INSTITUTO INCLUSAO BRASIL SAO VICENTE,CENTRO,"RUA JACOB EMERICK, 365",11310070,-23.96776,-46.385015,Sim,Baixa,528.8,Ponto 5,Não
INSTITUTO DE LASERTERAPIA MED LASER LTDA SAO VICENTE,CENTRO,"RUA FREI GASPAR, 147",11310060,-23.96822,-46.381569,Sim,Média,662.7,Ponto 2,Não
MARJORY ALFARO NASCIMENTO SAO VICENTE,CENTRO,"AV CAPITAO MOR AGUIAR, 210",11310200,-23.969072,-46.391707,Sim,Média,231.8,Ponto 5,Sim
LA LUMIERE PSICOLOGIA SAO VICENTE,CENTRO,"RUA JACOB EMERICK, 365",11310071,-23.965011,-46.391547,Sim,Alta,582.3,Ponto 5,Não
PSICOLORINDO CLINICA DE PSICOLOGIA SAO VICENTE,CENTRO,"RUA QUINZE DE NOVEMBRO, 576",11310400,-23.963704,-46.385425,Sim,Alta,815.5,Ponto 5,Não
DR EXAMINA SAO VICENTE,CENTRO,"RUA TIBIRICA, 160",11320020,-23.967376,-46.383096,Sim,Baixa,673.5,Ponto 2,Não
LABORATORIO DR LEAO DE MOURA SAO VICENTE,CENTRO,"IPIRANGA, 321",11310421,-23.964812,-46.387413,Sim,Alta,614.1,Ponto 5,Não
LABORATORIO SANTA CLARA SAO VICENTE,CENTRO,"PADRE ANCHIETA, 224",11310040,-23.968164,-46.384882,Sim,Baixa,522.2,Ponto 5,Não
MEDSEG SAO VICENTE,CENTRO,"RUA JACOB EMERICK, 1074",11310070,-23.964798,-46.390923,Sim,Alta,587.4,Ponto 5,Não
JULIANA CRUZ FERNANDES SAO VICENTE,CENTRO,"RUA FREI GASPAR, 637",11310061,-23.966058,-46.38569,Sim,Média,589.8,Ponto 5,Não
MARIA LUISA SAMPERE SERNA CRUZ SAO VICENTE,CENTRO,"AV PRESIDENTE WILSON, 1473",11320915,-23.965412,-46.38224,Sim,Média,905.1,Ponto 5,Não
I T CAVALCANTE CLINICA SAO VICENTE,CENTRO,"RUA IPIRANGA, 345",11310421,-23.964597,-46.387474,Sim,Alta,634.2,Ponto 5,Não
CLINICA FARES SAO VICENTE,CENTRO,"R QUINZE DE NOVEMBRO, 176",11310040,-23.96317,-46.385256,Sim,Alta,875.3,Ponto 5,Não
CONSULTORIO DE PSICOLOGIA VITALITE SAUDE SAO VICENTE,CENTRO,"RUA FREI GASPAR, 637",11310060,-23.949755,-46.411818,Sim,Alta,3181.5,Ponto 5,Não
CLINICA IPIRANGA LTDA SAO VICENTE,CENTRO,"RUA GONCALO MONTEIRO, 154",11320110,-23.9687,-46.373092,Sim,Baixa,181.1,Edifício Solaris,Sim
MARIA BEATRIZ ESTOGIO SILVA SAO VICENTE,CENTRO,"RUA JACOB EMERICK, 365",11310071,-23.965011,-46.391547,Sim,Alta,582.3,Ponto 5,Não
E T S FISIOTERAPIA SAO VICENTE,CENTRO,"RUA FREI GASPAR, 739",11310061,-23.965628,-46.386671,Sim,Alta,567,Ponto 5,Não
DOMINIO IMAGEM SAO VICENTE,CENTRO,"RUA PADRE ANCHIETA, 224",11310040,-23.968142,-46.384879,Sim,Baixa,523.4,Ponto 5,Não
CSS EXAMES PSICOTECNICOS SAO VICENTE,CENTRO,"RUA QUINZE DE NOVEMBRO, 576",11310400,-23.963728,-46.385414,Sim,Alta,813.9,Ponto 5,Não
DANIELA MARIA BUENO DE VARGAS SAO VICENTE,CENTRO,"RUA QUINZE DE NOVEMBRO, 576",11310400,-23.963706,-46.385435,Sim,Alta,814.8,Ponto 5,Não
SAMU 192 SAO VICENTE 8,CIDADE NAUTICA,"PRACA IMIGRACAO JAPONESA, S/N",11355230,-23.950627,-46.406641,Sim,Alta,2757,Ponto 5,Não
UNIDADE BASICA DE SAUDE TANCREDO NEVES SAO VICENTE,CIDADE NAUTICA,"RUA LUIZ MEIRELES DE ARAUJO, 160",11350560,-23.941615,-46.419081,Sim,Alta,4344.9,Ponto 5,Não
PRONTO ATENDIMENTO CIDADE NAUTICA SAO VICENTE,CIDADE NAUTICA,"PRACA IMIGRACAO JAPONESA, S/N",11310000,,,Sem coordenadas,,,,Sem coordenadas
UNIDADE BASICA DE SAUDE NAUTICA III SAO VICENTE,CIDADE NAUTICA,"RUA NICOLAU PATRICIO MOREIRA, 225",11340380,-23.954315,-46.415896,Sim,Alta,3184.6,Ponto 5,Não
SAMU 192 SAO VICENTE 1,CIDADE NAUTICA,"PRACA IMIGRACAO JAPONESA, S/N",11355230,-23.950617,-46.406652,Sim,Alta,2758.6,Ponto 5,Não
SAMU 192 SAO VICENTE 3,CIDADE NAUTICA,"PRACA IMIGRACAO JAPONESA, S/N",11355230,-23.950607,-46.406641,Sim,Alta,2758.7,Ponto 5,Não
SAMU 192 SAO VICENTE 4,CIDADE NAUTICA,"PRACA IMIGRACAO JAPONESA, S/N",11355230,,,Sem coordenadas,,,,Sem coordenadas
SAMU 192 SAO VICENTE 6,CIDADE NAUTICA,"PRACA IMIGRACAO JAPONESA, S/N",11355230,-23.951077,-46.406335,Sim,Alta,2698.5,Ponto 5,Não
SEST SENAT UNIDADE B N51 SV,CIDADE NAUTICA III,"ADALBERTO PANZAN, 151",11340265,-23.951903,-46.416343,Sim,Alta,3375,Ponto 5,Não
HOSPITAL DR OLAVO HORNEAUX DE MOURA SAO VICENTE,CJTO HUMAITA,"RUA ALFREDO SCHAMMAS, S/N",11349000,-23.949914,-46.45965,Sim,Baixa,7446.2,Ponto 6,Não
DROGAFARMA HUMAITA SV,CONJUNTO RESIDENCIAL,"HATCHIC ARMENIO CAICHJIAN, 232",11349390,-23.94951,-46.459462,Sim,Baixa,7443.3,Ponto 6,Não
SORRIDENTS CLINICAS ODONTOLOGICAS SV,ESPLANADA DOS BARREI,"SENADOR CESARIO BASTOS, 225",11340100,-23.957771,-46.401958,Sim,Média,1844.1,Ponto 5,Não
ESF ESPLANADA DOS BARREIROS SAO VICENTE,ESPLANADA DOS BARREI,"AV BRASIL, S/N",11330750,-23.96533,-46.413411,Sim,Alta,2445.9,Ponto 6,Não
POSTO DE ENFERMAGEM DO GONZAGUINHA SAO VICENTE,GONZAGUINHA,"AV EMBAIXADOR PEDRO DE TOLEDO, S/N",11320440,-23.970567,-46.383927,Sim,Baixa,314,Ponto 2,Não
ORLANDO FERREIRA DA COSTA SAO VICENTE,GONZAGUINHA,"AMADOR BUENO DA RIBEIRA, 64",11320060,,,Sem coordenadas,,,,Sem coordenadas
BEAUTY GRAF CENTER SAO VICENTE,GONZAGUINHA,"GONCALO MONTEIRO, 189",11320110,,,Sem coordenadas,,,,Sem coordenadas
BIOMEGA MEDICINA DIAGNOSTICA SAO VICENTE,GONZAGUINHA,"FREI GASPAR, 147",11310060,-23.968249,-46.380988,Sim,Média,696.2,Ponto 2,Não
IMUVI INSTITUTO DE MEDICINA HUMANAE VITAE SV,GONZAGUINHA,"DOUTOR AMERICO BRASILIENSE, 307",11320040,-23.965572,-46.379336,Sim,Alta,766.2,Edifício Solaris,Não
ESF HUMAITA SAO VICENTE,HUMAITA,"RUA ALFREDO NEVES, 319",11349370,-23.950216,-46.460013,Sim,Baixa,7470,Ponto 6,Não
CAD CENTRO APOIO E DIAGNOSTICO SAO VICENTE,HUMAITA,"RUA JOSE SINGER, S/N",11349000,-23.948823,-46.461355,Sim,Média,7650.1,Ponto 6,Não
PRONTO ATENDIMENTO HUMAITA SAO VICENTE,HUMAITA,"RUA JOSE SINGER, S/N",11349000,-23.949644,-46.459475,Sim,Baixa,7439.5,Ponto 6,Não
GLAUCIRA PECE VENTURA SAO VICENTE,HUMAITA,"DR JOSE SINGER, 387",11349000,,,Sem coordenadas,,,,Sem coordenadas
ACADEMIA DA SAUDE HUMAITA,HUMAITA,"PRACA SEBASTIAO AUGUSTO DA SILVA, S/N",11349190,-23.952639,-46.454035,Sim,Média,6808.2,Ponto 6,Não
RONNY TRAVASSOS AZURZA,ITARARE,"R JOAO JOSE FLORINDO DA SILVA, 27",11320230,-23.967373,-46.38449,Sim,Média,596.1,Ponto 5,Não
I U G C SAO VICENTE,ITARARE,"AV PRESIDENTE WILSON, 1033",11320001,-23.967304,-46.378593,Sim,Média,664.1,Edifício Solaris,Não
CLINICA DE OLHOS CARVALHO SAO VICENTE,ITARARE,"AVENIDA PRESIDENTE WILSON, 1473",11320001,-23.96532,-46.382187,Sim,Média,915.3,Ponto 5,Não
CARLOS SARKISSIAN SOBRINHO SAO VICENTE,ITARARE,"AVENIDA PRESIDENTE WILSON, 1081",11310090,-23.967075,-46.378921,Sim,Média,698.2,Edifício Solaris,Não
ROSANGELA SOARES MOREIRA SAO VICENTE,ITARARE,"AV PRESIDENTE WILSON, 89",11310100,-23.971713,-46.370463,Sim,Baixa,508.9,Edifício Solaris,Não
CLINICA MEDICA GADDINI LTDA SAO VICENTE,ITARARE,"AV PRESIDENTE WILSON, 1033",11310100,-23.967333,-46.37855,Sim,Média,659.7,Edifício Solaris,Não
ECELD MEDICINA E SAUDE LTDA SAO VICENTE,ITARARE,"AV PRESIDENTE WILSON, 1033",11320001,-23.967385,-46.378557,Sim,Média,660.4,Edifício Solaris,Não
AMOR SAUDE CLINICA ODONTOLOGICA SAO VICENTE,ITARARE,"MESSIA ASSU, 443",11320130,-23.970731,-46.371538,Sim,Baixa,377,Edifício Solaris,Não
DROGARAIA LJ0640 SV,ITARARE,"PRESIDENTE WILSON, 1169",11320001,-23.966803,-46.379663,Sim,Média,775.4,Edifício Solaris,Não
CLINICA PELLEGRINI SAO VICENTE,ITARARE,"FREITAS GUIMARAES, 445",11320080,-23.968842,-46.373017,Sim,Baixa,190.2,Edifício Solaris,Sim
VANIA LUCIA NOGUEIRA MENDES TAGLIARINI SAO VICENTE,ITARARE,"AV PRESIDENTE WILSON, 1473",11320001,-23.96543,-46.382232,Sim,Média,904.6,Ponto 5,Não
CLINICA MICHELLA CHAYAMITI SAO VICENTE,ITARARE,"AVENIDA PRESIDENTE WILSON, 1033",11320001,,,Sem coordenadas,,,,Sem coordenadas
POSTO DE ENFERMAGEM DO ITARARE SAO VICENTE,ITARARE,"AV AYRTON SENNA DA SILVA, S/N",11321000,-23.972133,-46.368856,Sim,Baixa,621.2,Edifício Solaris,Não
FUNDACAO PLURAL SAO VICENTE,ITARARE,"AV PRES WILSON, 1033",11320001,,,Sem coordenadas,,,,Sem coordenadas
ASSOCIACAO PLURAL SAO VICENTE,ITARARE,"AV PRES WILSON, 1033",11320001,,,Sem coordenadas,,,,Sem coordenadas
NOTRE DAME INTERMEDICA SAUDE AMBULATORIO SAO VICENTE,ITARARE,"AV PRESIDENTE WILSON, 199",11320001,-23.968817,-46.375694,Sim,Baixa,402.9,Edifício Solaris,Não
OFTALMOCENTER SAO VICENTE,ITARARE,"R ONZE DE JUNHO, 96",11320160,,,Sem coordenadas,,,,Sem coordenadas
SAMU 192 SAO VICENTE 5,ITARARE,"AVENIDA AYRTON SENNA, S/N",11321000,-23.972157,-46.368835,Sim,Baixa,624.5,Edifício Solaris,Não
DERMA REUMA CLINICA ESPECIALIZADA LTDA SAO VICENTE,ITARARE,"AV PRESIDENTE WILSON, 89",11320910,-23.968662,-46.375718,Sim,Baixa,398.6,Edifício Solaris,Não
PCF SAUDE INTEGRATIVA SV,ITARARE,"PRESIDENTE WILSON, 1473",11320001,-23.965509,-46.382163,Sim,Média,901.2,Ponto 2,Não
JULIA BITTENCOURT NUTRICIONISTA SAO VICENTE,ITARARE,"AV MANOEL DA NOBREGA, 1439",11320202,-23.968161,-46.360134,Não,,317,Ponto 3,Não
AMOR SAUDE SAO VICENTE,ITARARE,"MESSIA ASSU, 443",11320130,-23.972955,-46.37295,Sim,Baixa,627.2,Edifício Solaris,Não
AME AMBULATORIO MEDICO DE ESPECIALIDADES DE SAO VICENTE,ITARARE,"AVENIDA PRESIDENTE WILSON, 291",11320001,-23.97103,-46.370977,Sim,Baixa,421.1,Edifício Solaris,Não
ODONTO PRAIA SAO VICENTE,ITARARE,"RUA ONZE DE JUNHO, 292",11320160,-23.971306,-46.372543,Sim,Baixa,440,Edifício Solaris,Não
ESF JAPUI SAO VICENTE,JAPUI,"AV TUPINIQUINS, S/N",11325000,-23.984736,-46.39504,Sim,Média,849.6,Ponto 2,Não
UNIDADE BASICA DE SAUDE JARDIM GUASSU SAO VICENTE,JARDIM GUASSU,"RUA LAGARTO, 101",11370580,-23.951725,-46.380155,Sim,Alta,1924.8,Edifício Solaris,Não
LUIZ ALBERTO RIBEIRO BRAS SAO VICENTE,JARDIM GUASSU,"RUA FRANCISCO SILVA SANTOS, 20",11370350,,,Sem coordenadas,,,,Sem coordenadas
CAPS I CENTRO DE ATENCAO PSICOSSOCIAL INFANTIL SAO VICENTE,JARDIM GUASSU,"RUA SANTO ANTONIO, 64",11370540,-23.95249,-46.374908,Sim,Média,1680.2,Edifício Solaris,Não
ADRIANA PEREIRA MANTOVANELLI SAO VICENTE,JARDIM INDEPENDENCIA,"AVENIDA PREFEITO JOSE MONTEIRO, 765",11380001,-23.964168,-46.371762,Sim,Alta,357.7,Edifício Solaris,Não
FARMA CONDE FILIAL 133 SV,JARDIM INDEPENDENCIA,"PREFEITO JOSE MONTEIRO, 587",11380001,-23.964011,-46.372303,Sim,Alta,374.8,Edifício Solaris,Não
DROGARIA CARREFOUR DSV,JARDIM INDEPENDENCIA,"PREFEITO JOSE MONTEIRO, 1045",11380001,-23.967411,-46.369546,Sim,Média,255.2,Edifício Solaris,Sim
ODONTO SPECIALITTE SAO VICENTE,JARDIM INDEPENDENCIA,"RUA BERTA CRAVEIRO LOPES, 36",11380510,-23.96168,-46.374619,Sim,Média,684.6,Edifício Solaris,Não
UNIERO RADIOLOGIA,JARDIM INDEPENDENCIA,"RUA BERTA CRAVEIROS LOPES, 40",11380510,-23.963159,-46.374237,Sim,Média,518.4,Edifício Solaris,Não
UBIRAJARA DE MELLO JUNIOR SAO VICENTE,JARDIM INDEPENDENCIA,"RUA BERTA CRAVEIRO LOPES, 36",11380510,-23.96168,-46.374619,Sim,Média,684.6,Edifício Solaris,Não
MARYANE SASSI TELLES BAPTISTA SAO VICENTE,JARDIM INDEPENDENCIA,"AV PREFEITO JOSE MONTEIRO, 577",11380001,-23.963235,-46.375035,Sim,Média,550.8,Edifício Solaris,Não
TOPFISIO CLINICA DE FISIOTERAPIA LTDA SAO VICENTE,JARDIM INDEPENDENCIA,"AV PREFEITO JOSE MONTEIRO, 844",11380000,-23.965301,-46.370831,Sim,Alta,262,Edifício Solaris,Sim
PRISCILLA KATHERINE DE CARVALHO,JARDIM INDEPENDENCIA,"AV PREFEITO JOSE MONTEIRO, 765",11380001,,,Sem coordenadas,,,,Sem coordenadas
CATUENSE SAO VICENTE,JARDIM IRMA DOLORES,"DA MARKET, 810",11347590,-23.972734,-46.449036,Sim,Alta,5947.6,Ponto 6,Não
UNIDADE DE SAUDE DA MULHER DAVID CAPISTRANO SAO VICENTE,JARDIM IRMA DOLORES,"RUA SALVADOR, 60",11347725,-23.980172,-46.451803,Sim,Alta,6152.5,Ponto 2,Não
DRIELEN CARVALHO S DE PAULA PSICOLOGA SV,JARDIM PARAISO,"SAO CRISTOVAO, 75",11370610,-23.951645,-46.382571,Sim,Alta,2049.5,Edifício Solaris,Não
PATRICIA DUARTE IGNACIO DE SOUZA SAO VICENTE,JARDIM PARAISO,"RUA PROPRIA, 114",11370570,,,Sem coordenadas,,,,Sem coordenadas
ESF RIO BRANCO II E III SAO VICENTE,JARDIM RIO BRANCO,"RUA EDUARDO CACAO, S/N",11347150,-23.980961,-46.473008,Sim,Baixa,8255.9,Ponto 2,Não
ESF JARDIM RIO BRANCO SAO VICENTE,JARDIM RIO BRANCO,"RUA ANTONIO RISCALLE HUSNE, 1760",11347020,-23.979325,-46.470603,Sim,Baixa,8044.4,Ponto 2,Não
PRONTO SOCORRO RIO BRANCO SAO VICENTE,JARDIM RIO BRANCO,"AV DEPUTADO ULISSES GUIMARAES, 721",11347000,-23.979955,-46.473244,Sim,Baixa,8297,Ponto 2,Não
CAPS II JARDIM RIO BRANCO CENTRO DE ATENCAO PSICOSSOCIAL,JARDIM RIO BRANCO,"RUA DONALD ALEXANDRE KEALMAN, S/N",11347040,-23.980952,-46.474204,Sim,Baixa,8376.2,Ponto 2,Não
CENTRO DE AT ESP SAUDE DA PESSOA COM DEF REABILITAR II SV,JARDIM RIO BRANCO,"AV DR ULISSES GUIMARAES, 601",11347000,-23.982251,-46.470455,Sim,Baixa,7978.6,Ponto 2,Não
CEO III JD RIO BRANCO SAO VICENTE,JARDIM RIO BRANCO,"AV DEPUTADO ULISSES GUIMARAES, 1431",11347000,-23.983273,-46.468524,Sim,Média,7769.2,Ponto 2,Não
FARMA CONDE FILIAL 396 SV,JARDIM RIO BRANCO,"IRMA DOLORES, 1005",11347520,-23.984213,-46.462565,Sim,Alta,7155.5,Ponto 2,Não
DROGARAIA LJ 1920 SV,JARDIM RIO BRANCO,"DEPUTADO ULISSES GUIMARAES, 1607",11347000,-23.984409,-46.466975,Sim,Média,7597.9,Ponto 2,Não
WLADEMIR PATARO DE CASTRO SAO VICENTE,JARDIM RIO BRANCO,"AVENIDA DEPUTADO ULISSES GUIMARAES, 1547",11347000,-23.983928,-46.467498,Sim,Média,7656.8,Ponto 2,Não
CENTRO MEDICO POPULAR DE SAO VICENTE,JARDIM RIO BRANCO,"AV DEPUTADO ULISSES GUIMARAES, 1443",11347000,-23.983278,-46.468887,Sim,Baixa,7805.7,Ponto 2,Não
HOSPITAL DE CAMPANHA COVID 19 SV CONTINENTAL,JARDIM RIO BRANCO,"RUA JOSE FAGUNDES BEZERRA, S/N",11347070,-23.971702,-46.477487,Sim,Alta,8838,Ponto 6,Não
SAMU 192 SAO VICENTE 9,JARDIM RIO BRANCO,"AV ULISSES GUIMARAES, 231",11347000,-23.976426,-46.477743,Sim,Média,8817.3,Ponto 2,Não
SAMU 192 MOTOLANCIA 2 SAO VICENTE,JARDIM RIO BRANCO,"AV ULISSES GUIMARAES, 231",11347000,-23.97629,-46.477574,Sim,Média,8803.5,Ponto 2,Não
SAMU 192 MOTOLANCIA 1 SAO VICENTE,JARDIM RIO BRANCO,"AV ULISSES GUIMARAES, 231",11347000,-23.97629,-46.477574,Sim,Média,8803.5,Ponto 2,Não
SAMU 192 MOTOLANCIA 3 SAO VICENTE,JARDIM RIO BRANCO,"AV ULISSES GUIMARAES, 231",11347000,-23.97629,-46.477574,Sim,Média,8803.5,Ponto 2,Não
FARMACIA POPULAR DO BRASIL SAO VICENTE,JARDIM RIO BRANCO,"AV ULISSES GUIMARAES, 791",11347000,,,Sem coordenadas,,,,Sem coordenadas
CLINICA MEDICA DRA MICHELE MELO SAO VICENTE,JARDIM RIO BRANCO,"AV DEPUTADO ULISSES GUIMARAES, 1546",11347000,,,Sem coordenadas,,,,Sem coordenadas
SAMU 192 SAO VICENTE 2,JARDIM RIO BRANCO,"AV ULISSES GUIMARAES, 231",11347000,-23.97629,-46.477574,Sim,Média,8803.5,Ponto 2,Não
L A C SAUDE MAIS,JARDIM RIO BRANCO,"AV DEPUTADO ULISSES GUIMARAES, 1671",11347000,-23.979966,-46.473238,Sim,Baixa,8296.2,Ponto 2,Não
SAMU 192 SAO VICENTE 7,JARDIM RIO BRANCO,"AV ULISSES GUIMARAES, 231",11347000,-23.976383,-46.477606,Sim,Média,8804.6,Ponto 2,Não
E S F JARDIM RIO NEGRO,JARDIM RIO NEGRO,"RUA E, 110",11347430,-23.985097,-46.462524,Sim,Alta,7140,Ponto 2,Não
UNIDADE BASICA DE SAUDE JIP SAO VICENTE,JOQUEI CLUBE,"RUA ROBERTO KOCH, 584",11360190,-23.941528,-46.399216,Sim,Alta,3306.7,Ponto 5,Não
UNIDADE BASICA DE SAUDE SAMBAIATUBA SAO VICENTE,JOQUEI CLUBE,"PRACA DOM BOSCO, S/N",11365180,-23.945412,-46.389951,Sim,Alta,2728.4,Ponto 5,Não
CENTRO DE AT ESP A SAUDE DA CRIANCA COM DEF SAO CAMILO SV,NAUTICA III,"AV JOAO FRANCISCO BENSDORP, 261",11350010,-23.954943,-46.410414,Sim,Alta,2690.9,Ponto 5,Não
UNIDADE BASICA DE SAUDE PARQUE BITARU SAO VICENTE,PARQUE BITARU,"PRACA INFANTE DOM HENRIQUE, S/N",11330205,-23.97123,-46.394617,Sim,Alta,428.7,Ponto 6,Não
PRONTO SOCORRO CENTRAL SAO VICENTE,PARQUE BITARU,"AV MARECHAL CANDIDO MARIANO DA SILVA RONDON, 425",11330800,-23.962038,-46.397237,Sim,Alta,1170.5,Ponto 5,Não
FERNANDO LUIS MORETTI DA SILVA SAO VICENTE,PARQUE BITARU,"AV CAPITAO LUIZ ANTONIO PIMENTA, 397",11330200,,,Sem coordenadas,,,,Sem coordenadas
UNIDADE BASICA DE SAUDE PARQUE DAS BANDEIRAS SAO VICENTE,PARQUE DAS BANDEIRAS,"PRACA DARIO AREDES LACERDA, 70",11346005,-23.984638,-46.484841,Sim,Alta,9401.4,Ponto 2,Não
E S F GLEBA II,PARQUE DAS BANDEIRAS,"AV DR CELSO SANTOS, 510",11346250,-23.981971,-46.489672,Sim,Média,9919.6,Ponto 2,Não
PRONTO ATENDIMENTO PARQUE DAS BANDEIRAS SAO VICENTE,PARQUE DAS BANDEIRAS,"AV ESMERALDO SOARES TARQUINO DE CAMPOS, S/N",11346000,-23.985042,-46.484581,Sim,Alta,9371.2,Ponto 2,Não
ACADEMIA DA SAUDE PARQUE SAO VICENTE,PARQUE SAO VICENTE,"PRACA DOM PEDRO I, S/N",11360240,-23.95213,-46.398146,Sim,Alta,2161.7,Ponto 5,Não
VIANNA MEDICINA ESPECIALIZADA SAO VICENTE,PARQUE SAO VICENTE,"RUA GUARANY, 314",11360000,-23.950802,-46.396963,Sim,Alta,2255.3,Ponto 5,Não
UNIDADE BASICA DE SAUDE PARQUE SAO VICENTE SAO VICENTE,PARQUE SAO VICENTE,"PRACA DOM PEDRO I, S/N",11360240,-23.952042,-46.398168,Sim,Alta,2171.6,Ponto 5,Não
INSTITUTO ADESAF SAO VICENTE,PARQUE SAO VICENTE,"GUARANY, 70",11360000,-23.959042,-46.397759,Sim,Média,1466.9,Ponto 5,Não
CRUZ AZUL DE SAO PAULO AMBULATORIO SAO VICENTE,PARQUE SAO VICENTE,"PRACA RUI BARBOSA, 238",11360040,-23.955447,-46.398831,Sim,Alta,1863.5,Ponto 5,Não
FABIULA MARTINS LOURENCO SAO VICENTE,PARQUE SAO VICENTE,"RUA FREI GASPAR, 2160",11340000,-23.959273,-46.398511,Sim,Média,1490.7,Ponto 5,Não
UNIDADE BASICA DE SAUDE POMPEBA SAO VICENTE,POMPEBA,"RUA ANTONIO DA COSTA, S/N",11355150,-23.940207,-46.405879,Sim,Alta,3696,Ponto 5,Não
UNIDADE BASICA DE SAUDE PONTE NOVA SAO VICENTE,PONTE NOVA,"RUA SALVADOR, 70",11347725,-23.979909,-46.452555,Sim,Alta,6233.4,Ponto 2,Não
FLAVIA REGINA MARTINS DE OLIVEIRA SAO VICENTE,PQ BITARU,"R JACOB EMERICK, 1398",11310070,,,Sem coordenadas,,,,Sem coordenadas
ESF CONTINENTAL SAO VICENTE,PQ CONTINENTAL,"AV CENTRAL, 940",11348000,-23.955093,-46.458608,Sim,Alta,7173.5,Ponto 6,Não
UNIDADE BASICA DE SAUDE SAMARITA SAO VICENTE,SAMARITA,"RUA SERGIPE, 70",11345050,-23.991082,-46.477362,Sim,Média,8605.8,Ponto 2,Não
CDP LUIS CESAR LACERDA DE SAO VICENTE,SAMARITA,"RODOVIA PADRE MANOEL DA NOBREGA, S/N",11346300,-23.937453,-46.464194,Sim,Média,8393.9,Ponto 5,Não
PENITENCIARIA I DR GERALDO DE ANDRADE VIEIRA DE SAO VICENTE,SAMARITA,"RODOVIA PADRE MANOEL DA NOBREGA, 66",11348900,-23.96176,-46.4727,Sim,Média,8430.4,Ponto 6,Não
PENITENCIARIA II DE SAO VICENTE,SAMARITA,"RODOVIA PADRE MANOEL DA NOBREGA, 282",11348910,-23.92884,-46.46753,Não,,9140.7,Ponto 5,Não
MAXIMA DROGARIA SV,SAMARITA,"PIASSABUCU, 15",11345400,-23.990036,-46.474217,Sim,Baixa,8288.7,Ponto 2,Não
CASA VILA DE SAO VICENTE,SAMARITA,"PADRE MANOEL DA NOBREGA SP 55, S/N",11346300,-23.961783,-46.473836,Sim,Média,8544.5,Ponto 6,Não
ODONTO TEDESCO SAO VICENTE,VILA CASCATINHA,"AV ANTONIO EMMERICH, 110",11390000,,,Sem coordenadas,,,,Sem coordenadas
EUROFINS CLINICAL DIAGNOSTICS SAO VICENTE,VILA CASCATINHA,"ANTONIO EMMERICK, 245",11390001,-23.962364,-46.379508,Sim,Média,939.9,Edifício Solaris,Não
AMB IRMA DOLORES SERV APOIO PSICOSSOCIAL S VICENTE,VILA CASCATINHA,"AV ANTONIO EMERICH, 94",11390000,-23.963526,-46.381315,Sim,Média,1033.4,Edifício Solaris,Não
MARIANA MARQUES BORRALHO SAO VICENTE,VILA CASCATINHA,"AVENIDA MOTTA LIMA, 10",11370100,-23.961488,-46.37868,Sim,Média,938.7,Edifício Solaris,Não
CLINICA ODONTOLOGICA ODONTOYOU SS LTDA SAO VICENTE,VILA CASCATINHA,"AVENIDA ANTONIO EMMERICK, 358",11390000,-23.962364,-46.379508,Sim,Média,939.9,Edifício Solaris,Não
UVZ UNIDADE DE VIGILANCIA EM ZOONOSES SV,VILA CASCATINHA,"AV ANTONIO EMERICK, 750",11390001,-23.95982,-46.376678,Sim,Média,962.3,Edifício Solaris,Não
ALMOXARIFADO DA SAUDE SAO VICENTE,VILA CASCATINHA,"AV PREFEITO JOSE MONTEIRO, 111",11330800,-23.961599,-46.376072,Sim,Média,760.8,Edifício Solaris,Não
GUILHERME AUGUSTO BRAGA SILVA SAO VICENTE,VILA CASCATINHA,"AV ANTONIO EMERICH, 1018",11390001,,,Sem coordenadas,,,,Sem coordenadas
ESF VILA EMA E ESF VILA NOVA SAO VICENTE S VICENTE,VILA EMA,"RIA PADRE ANDRE DE SOVERAL, 240",11345310,-23.992565,-46.491415,Sim,Alta,10032.8,Ponto 2,Não
UNIDADE BASICA DE SAUDE VILA MARGARIDA SAO VICENTE,VILA MARGARIDA,"RUA POLYDORIO DE OLIVEIRA BITTENCOURT, 299",11330570,-23.967141,-46.401743,Sim,Alta,1267.6,Ponto 6,Não
ESF SAQUARE SAO VICENTE,VILA MARGARIDA,"RUA DO MEIO, S/N",11330710,-23.971338,-46.409836,Sim,Média,1966.1,Ponto 6,Não
CAPS II DOMINGOS STAMATO SAO VICENTE,VILA MARGARIDA,"RUA POLYDORO DE OLIVEIRA BITTENCOURT, 299",11330570,-23.967872,-46.402939,Sim,Média,1347.7,Ponto 6,Não
CAPS AD II SAO VICENTE,VILA MARGARIDA,"R POLIDORO DE OLIVEIRA BITENCOURT, 299",11330570,-23.963563,-46.381299,Sim,Média,1030.2,Edifício Solaris,Não
CENTRO MEDICO DE ESPECIALIDADES INFANTIS SAO VICENTE,VILA MARGARIDA,"RUA DR POLYDORO OLIVEIRA BITTENCOURT, 299",11330570,-23.966935,-46.401421,Sim,Alta,1243.4,Ponto 5,Não
INOVACAO SERVICOS TECNICOS EM RADIOLOGIA LTDA EPP,VILA MARGARIDA,"RUA ERNESTO INTRIERI, 65",11335000,,,Sem coordenadas,,,,Sem coordenadas
UNIDADE DE SAUDE DO ADOLESCENTE SAO VICENTE,VILA MARGARIDA,"RUA POLYDORO DE OLIVEIRA BITTENCOURT, 299",11330570,-23.96695,-46.401491,Sim,Alta,1249.8,Ponto 5,Não
UNIDADE BASICA DE SAUDE CENTRAL SAO VICENTE,VILA MELO,"AV ANTONIO EMMERICH, 509",11390001,-23.96114,-46.378231,Sim,Média,934.9,Edifício Solaris,Não
HOSPITAL ANA COSTA SAO VICENTE,VILA NOSSA DO AMPARO,"AV MARECHAL CANDIDO MARIANO RONDON, 155",11330800,-23.962719,-46.387729,Sim,Alta,826.8,Ponto 5,Não
CENTRO DE AT ESP A SAUDE DA PESSOA COM DEF REABILITAR I SV,VILA SAO JORGE,"AV MINAS GERAIS ESQUINA RUA COSTA REGO, 19",11380090,-23.95607,-46.369171,Sim,Média,1290.7,Edifício Solaris,Não
CAPS III MATER SAO VICENTE,VILA SAO JORGE,"AV MINAS GERAIS ESQUINA RUA COSTA REGO, 19",11380140,-23.956025,-46.369193,Sim,Média,1295.1,Edifício Solaris,Não
HOSPITAL DO VICENTINO,VILA SAO JORGE,"AV MINAS GERAIS, 19",11380090,-23.964285,-46.387294,Sim,Alta,673.1,Ponto 5,Não
ODONTOKER SAO VICENTE,VILA SAO JORGE,"AV ANTONIO EMMERICH, 1748",11380001,,,Sem coordenadas,,,,Sem coordenadas
CAD II CENTRO DE APOIO E DIAGNOSTICO SAO VICENTE,VILA SAO JORGE,"AV MINAS GERAIS ESQUINA RUA COSTA REGO, 19",11380140,-23.956136,-46.369278,Sim,Média,1281.1,Edifício Solaris,Não
CATO CENTRO DE ATENDIMENTO EM TRAUMATOLOGIA E ORTOPEDIA,VILA SAO JORGE,"AV MINAS GERAIS ESQUINA RUA COSTA REGO, 19",11380140,-23.900057,-46.378798,Não,,7516.6,Edifício Solaris,Não
FARMA CONDE FILIAL 458 SV,VILA SAO JORGE,"ANTONIO EMMERICH, 260",11390000,-23.962666,-46.379878,Sim,Média,951.6,Edifício Solaris,Não
DROGARIA NOVA SAO JORGE SV,VILA SAO JORGE,"ANTONIO EMMERICK, 830",11370000,-23.961107,-46.374771,Sim,Média,749.4,Edifício Solaris,Não
ALIVIARTE SAO VICENTE,VILA SAO JOSE,"AVENIDA ANTONIO EMMERICK, 1000",11370000,-23.957931,-46.375667,Sim,Média,1112.2,Edifício Solaris,Não
CLINIMEDI CLINICAS MEDICAS INTEGRADAS LTDA SAO VICENTE,VILA VALENCA,"AV MARECHAL DEODORO, 581",11390100,,,Sem coordenadas,,,,Sem coordenadas
ULYSSES GIOVANNINI SAO VICENTE,VILA VALENCA,"AV PREFEITO JOSE MONTEIRO, 842",11330000,-23.965261,-46.370751,Sim,Alta,269.8,Edifício Solaris,Sim
LUIZ AUGUSTO DE CARVALHO IERVOLINO SAO VICENTE,VILA VALENCA,"AV MAL DEODORO, 581",11390100,,,Sem coordenadas,,,,Sem coordenadas
MARIA IOLI PINFARI IERVOLINO SAO VICENTE,VILA VALENCA,"AV MAL DEODORO, 581",11390100,,,Sem coordenadas,,,,Sem coordenadas
CIONEIA SICUTI SAO VICENTE,VILA VALENCA,"AV ANTONIO EMMERICK, 358",11390001,-23.962195,-46.379113,Sim,Média,919.6,Edifício Solaris,Não
MARCELA FERNANDA BIANCO SAO VICENTE,VILA VALENCA,"RUA DOM LARA, 850",11390140,-23.963079,-46.379021,Sim,Média,853.7,Edifício Solaris,Não
LOURDES REGINA SALGUEIRO CASTRO SAO VICENTE,VILA VALENCA,"AV MAL DEODORO, 737",11320000,,,Sem coordenadas,,,,Sem coordenadas
CLAUDIA BEVILACQUA,VILA VALENCA,"AVENIDA ANTONIO EMERICH, 292",11390001,-23.962567,-46.379666,Sim,Média,939.9,Edifício Solaris,Não
SELMA REGINA GAMBA DE OLIVEIRA SAO VICENTE,VILA VALENCA,"AV PREFEITO JOSE MONTEIRO, 110",11310400,-23.961694,-46.376349,Sim,Média,767.5,Edifício Solaris,Não
HIGIA NEURO PSIQUIATRIA SAO VICENTE,VILA VALENCA,"DON LARA, 224",11390140,-23.963077,-46.379052,Sim,Média,856.4,Edifício Solaris,Não
HOPE FISIO SAO VICENTE,VILA VALENCA,"AVENIDA MARECHAL DEODORO, 197",11390100,-23.965625,-46.377763,Sim,Média,611.5,Edifício Solaris,Não
DENIZE RODRIGUES TEIXEIRA CASANOVA SAO VICENTE,VILA VALENCA,"AV PREFEITO JOSE MONTEIRO, 924",11380000,-23.965965,-46.370635,Sim,Alta,213.1,Edifício Solaris,Sim
AFIP SAO VICENTE,VILA VOTURUA,"AV MINAS GERAIS, 19",11310420,-23.957511,-46.369801,Sim,Média,1120.4,Edifício Solaris,Não
AMBULATORIO DA TERCEIRA IDADE SAO VICENTE,VILA VOTURUA,"R PRACA VITORIA DA CONQUISTA, S/N",11380140,-23.961499,-46.370482,Sim,Alta,672.6,Edifício Solaris,Não
UNIDADE BASICA DE SAUDE PRACA VITORIA SAO VICENTE,VILA VOTURUA,"PRACA VITORIA DA CONQUISTA, S/N",11380410,-23.96195,-46.370453,Sim,Alta,624.7,Edifício Solaris,Não
CAFARNAHUN SAO VICENTE,VILA VOTURUA,"JUIZ DE FORA, 238",11380420,-23.962114,-46.367956,Sim,Média,718.1,Edifício Solaris,Não
SAMU 192 SAO VICENTE,VL NOSSA SRA DE FATI,"PRACA DA IMIGRACAO JAPONESA, S/N",11355230,-23.950607,-46.406641,Sim,Alta,2758.7,Ponto 5,Não